[
{"name":"US Embassy London","lat":51.4814,"lng":-0.0903,"country":"GB","nation":"US","type":"embassy"},
{"name":"US Embassy Paris","lat":48.8616,"lng":2.301,"country":"FR","nation":"US","type":"embassy"},
{"name":"US Embassy Berlin","lat":52.5163,"lng":13.3817,"country":"DE","nation":"US","type":"embassy"},
{"name":"US Embassy Moscow","lat":55.7558,"lng":37.5809,"country":"RU","nation":"US","type":"embassy"},
{"name":"US Embassy Beijing","lat":39.9531,"lng":116.4614,"country":"CN","nation":"US","type":"embassy"},
{"name":"US Embassy Tokyo","lat":35.6672,"lng":139.7418,"country":"JP","nation":"US","type":"embassy"},
{"name":"US Embassy Ankara","lat":39.9212,"lng":32.8587,"country":"TR","nation":"US","type":"embassy"},
{"name":"US Embassy Ottawa","lat":45.4254,"lng":-75.6989,"country":"CA","nation":"US","type":"embassy"},
{"name":"US Embassy Canberra","lat":-35.2652,"lng":149.1213,"country":"AU","nation":"US","type":"embassy"},
{"name":"US Embassy Rome","lat":41.9249,"lng":12.4899,"country":"IT","nation":"US","type":"embassy"},
{"name":"US Embassy Madrid","lat":40.4477,"lng":-3.6915,"country":"ES","nation":"US","type":"embassy"},
{"name":"US Embassy New Delhi","lat":28.5979,"lng":77.199,"country":"IN","nation":"US","type":"embassy"},
{"name":"US Embassy Seoul","lat":37.5326,"lng":126.9985,"country":"KR","nation":"US","type":"embassy"},
{"name":"US Embassy Brasilia","lat":-15.8025,"lng":-47.8823,"country":"BR","nation":"US","type":"embassy"},
{"name":"US Embassy Cairo","lat":30.0451,"lng":31.2284,"country":"EG","nation":"US","type":"embassy"},
{"name":"US Embassy Tel Aviv","lat":32.0709,"lng":34.7883,"country":"IL","nation":"US","type":"embassy"},
{"name":"US Embassy Baghdad","lat":33.298,"lng":44.395,"country":"IQ","nation":"US","type":"embassy"},
{"name":"US Embassy Kabul","lat":34.5175,"lng":69.1828,"country":"AF","nation":"US","type":"embassy"},
{"name":"US Embassy Nairobi","lat":-1.3,"lng":36.83,"country":"KE","nation":"US","type":"embassy"},
{"name":"US Embassy Pretoria","lat":-25.7528,"lng":28.2147,"country":"ZA","nation":"US","type":"embassy"},
{"name":"US Embassy Riyadh","lat":24.6554,"lng":46.6894,"country":"SA","nation":"US","type":"embassy"},
{"name":"US Embassy Islamabad","lat":33.7155,"lng":73.1047,"country":"PK","nation":"US","type":"embassy"},
{"name":"US Embassy Kyiv","lat":50.4629,"lng":30.4863,"country":"UA","nation":"US","type":"embassy"},
{"name":"US Embassy Warsaw","lat":52.2287,"lng":21.0177,"country":"PL","nation":"US","type":"embassy"},
{"name":"US Embassy Mexico City","lat":19.4267,"lng":-99.1659,"country":"MX","nation":"US","type":"embassy"},
{"name":"US Embassy Bangkok","lat":13.7396,"lng":100.5487,"country":"TH","nation":"US","type":"embassy"},
{"name":"US Embassy Jakarta","lat":-6.1877,"lng":106.8241,"country":"ID","nation":"US","type":"embassy"},
{"name":"US Embassy Hanoi","lat":21.0367,"lng":105.8266,"country":"VN","nation":"US","type":"embassy"},
{"name":"US Embassy Singapore","lat":1.3056,"lng":103.8188,"country":"SG","nation":"US","type":"embassy"},
{"name":"US Consulate Istanbul","lat":41.0138,"lng":28.9842,"country":"TR","nation":"US","type":"consulate"},
{"name":"UK Embassy Washington","lat":38.9076,"lng":-77.049,"country":"US","nation":"GB","type":"embassy"},
{"name":"UK Embassy Paris","lat":48.8663,"lng":2.3198,"country":"FR","nation":"GB","type":"embassy"},
{"name":"UK Embassy Berlin","lat":52.5166,"lng":13.3818,"country":"DE","nation":"GB","type":"embassy"},
{"name":"UK Embassy Moscow","lat":55.7529,"lng":37.5882,"country":"RU","nation":"GB","type":"embassy"},
{"name":"UK Embassy Beijing","lat":39.9541,"lng":116.4334,"country":"CN","nation":"GB","type":"embassy"},
{"name":"UK Embassy Tokyo","lat":35.6515,"lng":139.7397,"country":"JP","nation":"GB","type":"embassy"},
{"name":"UK Embassy Ankara","lat":39.9178,"lng":32.8628,"country":"TR","nation":"GB","type":"embassy"},
{"name":"UK Embassy Cairo","lat":30.0409,"lng":31.2391,"country":"EG","nation":"GB","type":"embassy"},
{"name":"UK Embassy Riyadh","lat":24.698,"lng":46.6984,"country":"SA","nation":"GB","type":"embassy"},
{"name":"UK Embassy New Delhi","lat":28.5964,"lng":77.2139,"country":"IN","nation":"GB","type":"embassy"},
{"name":"UK Embassy Rome","lat":41.9191,"lng":12.4931,"country":"IT","nation":"GB","type":"embassy"},
{"name":"UK Embassy Madrid","lat":40.4229,"lng":-3.6931,"country":"ES","nation":"GB","type":"embassy"},
{"name":"UK Embassy Brasilia","lat":-15.8259,"lng":-47.924,"country":"BR","nation":"GB","type":"embassy"},
{"name":"UK Embassy Seoul","lat":37.5558,"lng":126.9808,"country":"KR","nation":"GB","type":"embassy"},
{"name":"UK Embassy Kyiv","lat":50.4435,"lng":30.518,"country":"UA","nation":"GB","type":"embassy"},
{"name":"UK Consulate Istanbul","lat":41.0309,"lng":28.9747,"country":"TR","nation":"GB","type":"consulate"},
{"name":"Russian Embassy Washington","lat":38.9119,"lng":-77.0684,"country":"US","nation":"RU","type":"embassy"},
{"name":"Russian Embassy London","lat":51.5298,"lng":-0.1818,"country":"GB","nation":"RU","type":"embassy"},
{"name":"Russian Embassy Paris","lat":48.8677,"lng":2.3241,"country":"FR","nation":"RU","type":"embassy"},
{"name":"Russian Embassy Berlin","lat":52.5201,"lng":13.3839,"country":"DE","nation":"RU","type":"embassy"},
{"name":"Russian Embassy Beijing","lat":39.9589,"lng":116.4119,"country":"CN","nation":"RU","type":"embassy"},
{"name":"Russian Embassy Tokyo","lat":35.6598,"lng":139.7484,"country":"JP","nation":"RU","type":"embassy"},
{"name":"Russian Embassy Ankara","lat":39.9254,"lng":32.8612,"country":"TR","nation":"RU","type":"embassy"},
{"name":"Russian Embassy New Delhi","lat":28.5926,"lng":77.1723,"country":"IN","nation":"RU","type":"embassy"},
{"name":"Russian Embassy Cairo","lat":30.0411,"lng":31.2178,"country":"EG","nation":"RU","type":"embassy"},
{"name":"Russian Embassy Damascus","lat":33.5209,"lng":36.2844,"country":"SY","nation":"RU","type":"embassy"},
{"name":"Russian Embassy Tehran","lat":35.7023,"lng":51.4192,"country":"IR","nation":"RU","type":"embassy"},
{"name":"Russian Embassy Havana","lat":23.1174,"lng":-82.4024,"country":"CU","nation":"RU","type":"embassy"},
{"name":"Russian Embassy Pretoria","lat":-25.7521,"lng":28.2179,"country":"ZA","nation":"RU","type":"embassy"},
{"name":"Russian Embassy Brasilia","lat":-15.8039,"lng":-47.8838,"country":"BR","nation":"RU","type":"embassy"},
{"name":"Russian Consulate Istanbul","lat":41.0335,"lng":28.9795,"country":"TR","nation":"RU","type":"consulate"},
{"name":"Chinese Embassy Washington","lat":38.9147,"lng":-77.063,"country":"US","nation":"CN","type":"embassy"},
{"name":"Chinese Embassy London","lat":51.5132,"lng":-0.1982,"country":"GB","nation":"CN","type":"embassy"},
{"name":"Chinese Embassy Paris","lat":48.8637,"lng":2.2977,"country":"FR","nation":"CN","type":"embassy"},
{"name":"Chinese Embassy Berlin","lat":52.5165,"lng":13.3868,"country":"DE","nation":"CN","type":"embassy"},
{"name":"Chinese Embassy Moscow","lat":55.7508,"lng":37.5997,"country":"RU","nation":"CN","type":"embassy"},
{"name":"Chinese Embassy Tokyo","lat":35.6747,"lng":139.7223,"country":"JP","nation":"CN","type":"embassy"},
{"name":"Chinese Embassy Ankara","lat":39.9159,"lng":32.8388,"country":"TR","nation":"CN","type":"embassy"},
{"name":"Chinese Embassy New Delhi","lat":28.5945,"lng":77.1784,"country":"IN","nation":"CN","type":"embassy"},
{"name":"Chinese Embassy Islamabad","lat":33.7224,"lng":73.0879,"country":"PK","nation":"CN","type":"embassy"},
{"name":"Chinese Embassy Pyongyang","lat":38.997,"lng":125.7437,"country":"KP","nation":"CN","type":"embassy"},
{"name":"Chinese Embassy Seoul","lat":37.5524,"lng":126.9702,"country":"KR","nation":"CN","type":"embassy"},
{"name":"Chinese Embassy Canberra","lat":-35.2872,"lng":149.1351,"country":"AU","nation":"CN","type":"embassy"},
{"name":"Chinese Embassy Ottawa","lat":45.4288,"lng":-75.6885,"country":"CA","nation":"CN","type":"embassy"},
{"name":"Chinese Embassy Brasilia","lat":-15.8122,"lng":-47.8936,"country":"BR","nation":"CN","type":"embassy"},
{"name":"Chinese Embassy Nairobi","lat":-1.2755,"lng":36.8036,"country":"KE","nation":"CN","type":"embassy"},
{"name":"Chinese Embassy Addis Ababa","lat":9.0162,"lng":38.7579,"country":"ET","nation":"CN","type":"embassy"},
{"name":"Chinese Consulate Istanbul","lat":41.0467,"lng":29.0073,"country":"TR","nation":"CN","type":"consulate"},
{"name":"French Embassy Washington","lat":38.9168,"lng":-77.0518,"country":"US","nation":"FR","type":"embassy"},
{"name":"French Embassy London","lat":51.5068,"lng":-0.157,"country":"GB","nation":"FR","type":"embassy"},
{"name":"French Embassy Berlin","lat":52.5143,"lng":13.3871,"country":"DE","nation":"FR","type":"embassy"},
{"name":"French Embassy Moscow","lat":55.753,"lng":37.5989,"country":"RU","nation":"FR","type":"embassy"},
{"name":"French Embassy Beijing","lat":39.9283,"lng":116.4449,"country":"CN","nation":"FR","type":"embassy"},
{"name":"French Embassy Tokyo","lat":35.6772,"lng":139.7324,"country":"JP","nation":"FR","type":"embassy"},
{"name":"French Embassy Ankara","lat":39.918,"lng":32.8575,"country":"TR","nation":"FR","type":"embassy"},
{"name":"French Embassy New Delhi","lat":28.591,"lng":77.2078,"country":"IN","nation":"FR","type":"embassy"},
{"name":"French Embassy Rome","lat":41.9085,"lng":12.4723,"country":"IT","nation":"FR","type":"embassy"},
{"name":"French Embassy Cairo","lat":30.0436,"lng":31.2299,"country":"EG","nation":"FR","type":"embassy"},
{"name":"French Embassy Dakar","lat":14.679,"lng":-17.455,"country":"SN","nation":"FR","type":"embassy"},
{"name":"French Embassy Bamako","lat":12.6069,"lng":-8.0233,"country":"ML","nation":"FR","type":"embassy"},
{"name":"French Embassy Abidjan","lat":5.3225,"lng":-3.9678,"country":"CI","nation":"FR","type":"embassy"},
{"name":"French Embassy Beirut","lat":33.8928,"lng":35.4928,"country":"LB","nation":"FR","type":"embassy"},
{"name":"French Embassy Algiers","lat":36.755,"lng":3.06,"country":"DZ","nation":"FR","type":"embassy"},
{"name":"French Consulate Istanbul","lat":41.0311,"lng":28.9748,"country":"TR","nation":"FR","type":"consulate"},
{"name":"Turkish Embassy Washington","lat":38.9082,"lng":-77.0549,"country":"US","nation":"TR","type":"embassy"},
{"name":"Turkish Embassy London","lat":51.5009,"lng":-0.1537,"country":"GB","nation":"TR","type":"embassy"},
{"name":"Turkish Embassy Paris","lat":48.8661,"lng":2.3098,"country":"FR","nation":"TR","type":"embassy"},
{"name":"Turkish Embassy Berlin","lat":52.5146,"lng":13.3875,"country":"DE","nation":"TR","type":"embassy"},
{"name":"Turkish Embassy Moscow","lat":55.7462,"lng":37.5936,"country":"RU","nation":"TR","type":"embassy"},
{"name":"Turkish Embassy Beijing","lat":39.9517,"lng":116.4473,"country":"CN","nation":"TR","type":"embassy"},
{"name":"Turkish Embassy Tokyo","lat":35.6676,"lng":139.7212,"country":"JP","nation":"TR","type":"embassy"},
{"name":"Turkish Embassy Rome","lat":41.9225,"lng":12.4962,"country":"IT","nation":"TR","type":"embassy"},
{"name":"Turkish Embassy Madrid","lat":40.4499,"lng":-3.691,"country":"ES","nation":"TR","type":"embassy"},
{"name":"Turkish Embassy Cairo","lat":30.0459,"lng":31.2253,"country":"EG","nation":"TR","type":"embassy"},
{"name":"Turkish Embassy Baghdad","lat":33.2994,"lng":44.3654,"country":"IQ","nation":"TR","type":"embassy"},
{"name":"Turkish Embassy Riyadh","lat":24.6712,"lng":46.6893,"country":"SA","nation":"TR","type":"embassy"},
{"name":"Turkish Embassy Tehran","lat":35.7137,"lng":51.4084,"country":"IR","nation":"TR","type":"embassy"},
{"name":"Turkish Embassy Islamabad","lat":33.7187,"lng":73.0939,"country":"PK","nation":"TR","type":"embassy"},
{"name":"Turkish Embassy Kyiv","lat":50.4519,"lng":30.507,"country":"UA","nation":"TR","type":"embassy"},
{"name":"Turkish Embassy Baku","lat":40.4061,"lng":49.8674,"country":"AZ","nation":"TR","type":"embassy"},
{"name":"Turkish Embassy Tbilisi","lat":41.7012,"lng":44.7812,"country":"GE","nation":"TR","type":"embassy"},
{"name":"Turkish Embassy Bishkek","lat":42.8678,"lng":74.603,"country":"KG","nation":"TR","type":"embassy"},
{"name":"Turkish Embassy Tashkent","lat":41.3171,"lng":69.2851,"country":"UZ","nation":"TR","type":"embassy"},
{"name":"Turkish Embassy Astana","lat":51.1267,"lng":71.4674,"country":"KZ","nation":"TR","type":"embassy"},
{"name":"Turkish Embassy Ashgabat","lat":37.9489,"lng":58.3712,"country":"TM","nation":"TR","type":"embassy"},
{"name":"Turkish Embassy Mogadishu","lat":2.0449,"lng":45.3405,"country":"SO","nation":"TR","type":"embassy"},
{"name":"Turkish Embassy Tripoli","lat":32.9097,"lng":13.1671,"country":"LY","nation":"TR","type":"embassy"},
{"name":"Turkish Embassy Doha","lat":25.2992,"lng":51.5197,"country":"QA","nation":"TR","type":"embassy"},
{"name":"Turkish Embassy Abu Dhabi","lat":24.4539,"lng":54.3773,"country":"AE","nation":"TR","type":"embassy"},
{"name":"Turkish Embassy Sarajevo","lat":43.8604,"lng":18.4126,"country":"BA","nation":"TR","type":"embassy"},
{"name":"Turkish Embassy Skopje","lat":41.9991,"lng":21.4328,"country":"MK","nation":"TR","type":"embassy"},
{"name":"Turkish Embassy Tirana","lat":41.3243,"lng":19.8151,"country":"AL","nation":"TR","type":"embassy"},
{"name":"Turkish Embassy Nicosia","lat":35.1941,"lng":33.3639,"country":"CY","nation":"TR","type":"embassy"},
{"name":"Turkish Embassy Brasilia","lat":-15.8098,"lng":-47.8896,"country":"BR","nation":"TR","type":"embassy"},
{"name":"Turkish Embassy New Delhi","lat":28.5917,"lng":77.2087,"country":"IN","nation":"TR","type":"embassy"},
{"name":"Turkish Embassy Seoul","lat":37.5447,"lng":127.0026,"country":"KR","nation":"TR","type":"embassy"},
{"name":"Turkish Embassy Canberra","lat":-35.291,"lng":149.1317,"country":"AU","nation":"TR","type":"embassy"},
{"name":"Turkish Embassy Ottawa","lat":45.4228,"lng":-75.6949,"country":"CA","nation":"TR","type":"embassy"},
{"name":"Turkish Embassy Addis Ababa","lat":9.0134,"lng":38.7572,"country":"ET","nation":"TR","type":"embassy"},
{"name":"Turkish Embassy Nairobi","lat":-1.2847,"lng":36.7976,"country":"KE","nation":"TR","type":"embassy"},
{"name":"Turkish Embassy Pretoria","lat":-25.752,"lng":28.2142,"country":"ZA","nation":"TR","type":"embassy"},
{"name":"Turkish Consulate New York","lat":40.7688,"lng":-73.9694,"country":"US","nation":"TR","type":"consulate"},
{"name":"Turkish Consulate Mosul","lat":36.335,"lng":43.119,"country":"IQ","nation":"TR","type":"consulate"},
{"name":"Turkish Consulate Erbil","lat":36.188,"lng":44.009,"country":"IQ","nation":"TR","type":"consulate"},
{"name":"US Embassy Lima","lat":-12.092,"lng":-77.028,"country":"PE","nation":"US","type":"embassy"},
{"name":"US Embassy Buenos Aires","lat":-34.585,"lng":-58.399,"country":"AR","nation":"US","type":"embassy"},
{"name":"US Embassy Bogota","lat":4.655,"lng":-74.089,"country":"CO","nation":"US","type":"embassy"},
{"name":"US Embassy Manila","lat":14.5525,"lng":120.9873,"country":"PH","nation":"US","type":"embassy"},
{"name":"US Embassy Kuala Lumpur","lat":3.168,"lng":101.7074,"country":"MY","nation":"US","type":"embassy"},
{"name":"US Embassy Addis Ababa","lat":9.0107,"lng":38.7612,"country":"ET","nation":"US","type":"embassy"},
{"name":"US Embassy Accra","lat":5.571,"lng":-0.179,"country":"GH","nation":"US","type":"embassy"},
{"name":"US Embassy Lagos","lat":6.461,"lng":3.395,"country":"NG","nation":"US","type":"consulate"},
{"name":"US Embassy Abuja","lat":9.075,"lng":7.489,"country":"NG","nation":"US","type":"embassy"},
{"name":"UK Embassy Kabul","lat":34.5273,"lng":69.1712,"country":"AF","nation":"GB","type":"embassy"},
{"name":"UK Embassy Baghdad","lat":33.297,"lng":44.383,"country":"IQ","nation":"GB","type":"embassy"},
{"name":"UK Embassy Tehran","lat":35.7119,"lng":51.4142,"country":"IR","nation":"GB","type":"embassy"},
{"name":"UK Embassy Islamabad","lat":33.7276,"lng":73.0948,"country":"PK","nation":"GB","type":"embassy"},
{"name":"UK Embassy Bangkok","lat":13.7346,"lng":100.536,"country":"TH","nation":"GB","type":"embassy"},
{"name":"UK Embassy Singapore","lat":1.3048,"lng":103.8232,"country":"SG","nation":"GB","type":"embassy"},
{"name":"UK Embassy Canberra","lat":-35.2615,"lng":149.1352,"country":"AU","nation":"GB","type":"embassy"},
{"name":"Russian Embassy Pyongyang","lat":39.008,"lng":125.748,"country":"KP","nation":"RU","type":"embassy"},
{"name":"Russian Embassy Caracas","lat":10.493,"lng":-66.867,"country":"VE","nation":"RU","type":"embassy"},
{"name":"Russian Embassy Belgrade","lat":44.807,"lng":20.473,"country":"RS","nation":"RU","type":"embassy"},
{"name":"Russian Embassy Minsk","lat":53.916,"lng":27.567,"country":"BY","nation":"RU","type":"embassy"},
{"name":"Russian Embassy Astana","lat":51.136,"lng":71.433,"country":"KZ","nation":"RU","type":"embassy"},
{"name":"Chinese Embassy Dar es Salaam","lat":-6.795,"lng":39.284,"country":"TZ","nation":"CN","type":"embassy"},
{"name":"Chinese Embassy Colombo","lat":6.919,"lng":79.859,"country":"LK","nation":"CN","type":"embassy"},
{"name":"Chinese Embassy Dhaka","lat":23.796,"lng":90.406,"country":"BD","nation":"CN","type":"embassy"},
{"name":"Chinese Embassy Phnom Penh","lat":11.572,"lng":104.923,"country":"KH","nation":"CN","type":"embassy"},
{"name":"Chinese Embassy Vientiane","lat":17.978,"lng":102.637,"country":"LA","nation":"CN","type":"embassy"},
{"name":"Chinese Embassy Yangon","lat":16.874,"lng":96.164,"country":"MM","nation":"CN","type":"embassy"},
{"name":"French Embassy Abuja","lat":9.074,"lng":7.485,"country":"NG","nation":"FR","type":"embassy"},
{"name":"French Embassy Tunis","lat":36.841,"lng":10.169,"country":"TN","nation":"FR","type":"embassy"},
{"name":"French Embassy Rabat","lat":33.989,"lng":-6.843,"country":"MA","nation":"FR","type":"embassy"},
{"name":"French Embassy Kinshasa","lat":-4.308,"lng":15.296,"country":"CD","nation":"FR","type":"embassy"},
{"name":"US Embassy Doha","lat":25.323,"lng":51.527,"country":"QA","nation":"US","type":"embassy"},
{"name":"US Embassy Abu Dhabi","lat":24.424,"lng":54.434,"country":"AE","nation":"US","type":"embassy"},
{"name":"US Embassy Kuwait City","lat":29.347,"lng":48.023,"country":"KW","nation":"US","type":"embassy"},
{"name":"US Embassy Amman","lat":31.954,"lng":35.877,"country":"JO","nation":"US","type":"embassy"},
{"name":"US Embassy Beirut","lat":33.872,"lng":35.541,"country":"LB","nation":"US","type":"embassy"},
{"name":"US Embassy Tbilisi","lat":41.713,"lng":44.777,"country":"GE","nation":"US","type":"embassy"},
{"name":"US Embassy Baku","lat":40.395,"lng":49.845,"country":"AZ","nation":"US","type":"embassy"},
{"name":"US Embassy Stockholm","lat":59.336,"lng":18.072,"country":"SE","nation":"US","type":"embassy"},
{"name":"US Embassy Helsinki","lat":60.162,"lng":24.937,"country":"FI","nation":"US","type":"embassy"},
{"name":"US Embassy Prague","lat":50.081,"lng":14.412,"country":"CZ","nation":"US","type":"embassy"},
{"name":"US Embassy Budapest","lat":47.508,"lng":19.083,"country":"HU","nation":"US","type":"embassy"},
{"name":"US Embassy Bucharest","lat":44.44,"lng":26.098,"country":"RO","nation":"US","type":"embassy"},
{"name":"US Embassy Athens","lat":37.9718,"lng":23.7294,"country":"GR","nation":"US","type":"embassy"},
{"name":"US Embassy Lisbon","lat":38.728,"lng":-9.148,"country":"PT","nation":"US","type":"embassy"},
{"name":"US Embassy Brussels","lat":50.845,"lng":4.367,"country":"BE","nation":"US","type":"embassy"},
{"name":"US Embassy The Hague","lat":52.079,"lng":4.328,"country":"NL","nation":"US","type":"embassy"},
{"name":"US Embassy Bern","lat":46.958,"lng":7.443,"country":"CH","nation":"US","type":"embassy"},
{"name":"US Embassy Vienna","lat":48.209,"lng":16.358,"country":"AT","nation":"US","type":"embassy"},
{"name":"US Embassy Copenhagen","lat":55.684,"lng":12.589,"country":"DK","nation":"US","type":"embassy"},
{"name":"US Embassy Oslo","lat":59.93,"lng":10.73,"country":"NO","nation":"US","type":"embassy"},
{"name":"Turkish Embassy Stockholm","lat":59.35,"lng":18.07,"country":"SE","nation":"TR","type":"embassy"},
{"name":"Turkish Embassy Brussels","lat":50.84,"lng":4.37,"country":"BE","nation":"TR","type":"embassy"},
{"name":"Turkish Embassy The Hague","lat":52.08,"lng":4.31,"country":"NL","nation":"TR","type":"embassy"},
{"name":"Turkish Embassy Vienna","lat":48.208,"lng":16.359,"country":"AT","nation":"TR","type":"embassy"},
{"name":"Turkish Embassy Athens","lat":37.975,"lng":23.735,"country":"GR","nation":"TR","type":"embassy"},
{"name":"Turkish Embassy Bucharest","lat":44.435,"lng":26.093,"country":"RO","nation":"TR","type":"embassy"},
{"name":"Turkish Embassy Warsaw","lat":52.221,"lng":21.014,"country":"PL","nation":"TR","type":"embassy"},
{"name":"Turkish Embassy Budapest","lat":47.513,"lng":19.075,"country":"HU","nation":"TR","type":"embassy"},
{"name":"Turkish Embassy Mexico City","lat":19.426,"lng":-99.178,"country":"MX","nation":"TR","type":"embassy"},
{"name":"Turkish Embassy Tokyo (alt)","lat":35.658,"lng":139.728,"country":"JP","nation":"TR","type":"embassy"},
{"name":"Turkish Embassy Jakarta","lat":-6.183,"lng":106.831,"country":"ID","nation":"TR","type":"embassy"},
{"name":"Turkish Embassy Kuala Lumpur","lat":3.162,"lng":101.711,"country":"MY","nation":"TR","type":"embassy"},
{"name":"Turkish Embassy Bangkok","lat":13.737,"lng":100.55,"country":"TH","nation":"TR","type":"embassy"}
]