[
{"name":"Ramstein Air Base","lat":49.4369,"lng":7.6003,"country":"DE","type":"air","branch":"USAF"},
{"name":"Aviano Air Base","lat":46.0319,"lng":12.5965,"country":"IT","type":"air","branch":"USAF"},
{"name":"RAF Lakenheath","lat":52.4093,"lng":0.5608,"country":"GB","type":"air","branch":"USAF"},
{"name":"RAF Mildenhall","lat":52.3613,"lng":0.4864,"country":"GB","type":"air","branch":"USAF"},
{"name":"RAF Croughton","lat":51.9931,"lng":-1.2075,"country":"GB","type":"air","branch":"USAF"},
{"name":"RAF Alconbury","lat":52.3622,"lng":-0.2264,"country":"GB","type":"air","branch":"USAF"},
{"name":"Spangdahlem Air Base","lat":49.9725,"lng":6.6925,"country":"DE","type":"air","branch":"USAF"},
{"name":"Incirlik Air Base","lat":37.0022,"lng":35.4259,"country":"TR","type":"air","branch":"USAF"},
{"name":"Yokota Air Base","lat":35.7485,"lng":139.3485,"country":"JP","type":"air","branch":"USAF"},
{"name":"Kadena Air Base","lat":26.3516,"lng":127.7692,"country":"JP","type":"air","branch":"USAF"},
{"name":"Misawa Air Base","lat":40.7032,"lng":141.3686,"country":"JP","type":"air","branch":"USAF"},
{"name":"Osan Air Base","lat":37.0908,"lng":127.0296,"country":"KR","type":"air","branch":"USAF"},
{"name":"Kunsan Air Base","lat":35.9038,"lng":126.6159,"country":"KR","type":"air","branch":"USAF"},
{"name":"Al Udeid Air Base","lat":25.1174,"lng":51.315,"country":"QA","type":"air","branch":"USAF"},
{"name":"Al Dhafra Air Base","lat":24.2481,"lng":54.5478,"country":"AE","type":"air","branch":"USAF"},
{"name":"Al Jaber Air Base","lat":28.9337,"lng":47.7909,"country":"KW","type":"air","branch":"USAF"},
{"name":"Ali Al Salem Air Base","lat":29.3467,"lng":47.5208,"country":"KW","type":"air","branch":"USAF"},
{"name":"Prince Sultan Air Base","lat":24.0627,"lng":47.5804,"country":"SA","type":"air","branch":"USAF"},
{"name":"Bagram Airfield","lat":34.9461,"lng":69.265,"country":"AF","type":"air","branch":"USAF"},
{"name":"Thule Air Base","lat":76.5312,"lng":-68.7031,"country":"GL","type":"air","branch":"USAF"},
{"name":"Lajes Field","lat":38.7618,"lng":-27.0909,"country":"PT","type":"air","branch":"USAF"},
{"name":"Morón Air Base","lat":37.175,"lng":-5.616,"country":"ES","type":"air","branch":"USAF"},
{"name":"Rota Naval Station","lat":36.6419,"lng":-6.3497,"country":"ES","type":"joint","branch":"USN"},
{"name":"Sigonella Naval Air Station","lat":37.4017,"lng":14.9222,"country":"IT","type":"air","branch":"USN"},
{"name":"Camp Lemonnier","lat":11.5469,"lng":43.1497,"country":"DJ","type":"joint","branch":"USN"},
{"name":"Diego Garcia","lat":-7.3133,"lng":72.4111,"country":"IO","type":"joint","branch":"USN"},
{"name":"Andersen Air Force Base","lat":13.584,"lng":144.9243,"country":"GU","type":"air","branch":"USAF"},
{"name":"Joint Base Pearl Harbor-Hickam","lat":21.3484,"lng":-157.9397,"country":"US","type":"joint","branch":"USN"},
{"name":"Naval Station Norfolk","lat":36.9458,"lng":-76.3028,"country":"US","type":"naval","branch":"USN"},
{"name":"Naval Station San Diego","lat":32.6839,"lng":-117.1292,"country":"US","type":"naval","branch":"USN"},
{"name":"Naval Station Mayport","lat":30.3922,"lng":-81.4061,"country":"US","type":"naval","branch":"USN"},
{"name":"Naval Station Guantanamo Bay","lat":19.9064,"lng":-75.0972,"country":"CU","type":"naval","branch":"USN"},
{"name":"Naval Station Rota","lat":36.6419,"lng":-6.3497,"country":"ES","type":"naval","branch":"USN"},
{"name":"Naval Support Activity Bahrain","lat":26.2361,"lng":50.6064,"country":"BH","type":"naval","branch":"USN"},
{"name":"Naval Support Activity Naples","lat":40.8172,"lng":14.18,"country":"IT","type":"naval","branch":"USN"},
{"name":"Naval Station Yokosuka","lat":35.2833,"lng":139.6667,"country":"JP","type":"naval","branch":"USN"},
{"name":"Naval Station Sasebo","lat":33.1631,"lng":129.7153,"country":"JP","type":"naval","branch":"USN"},
{"name":"Naval Base Guam","lat":13.4443,"lng":144.6564,"country":"GU","type":"naval","branch":"USN"},
{"name":"Naval Station Everett","lat":48.0165,"lng":-122.2095,"country":"US","type":"naval","branch":"USN"},
{"name":"Naval Station Newport","lat":41.5074,"lng":-71.3301,"country":"US","type":"naval","branch":"USN"},
{"name":"Naval Station Great Lakes","lat":42.3008,"lng":-87.8536,"country":"US","type":"naval","branch":"USN"},
{"name":"Naval Submarine Base Kings Bay","lat":30.7996,"lng":-81.5634,"country":"US","type":"naval","branch":"USN"},
{"name":"Naval Submarine Base New London","lat":41.3871,"lng":-72.0887,"country":"US","type":"naval","branch":"USN"},
{"name":"Naval Base Kitsap","lat":47.5649,"lng":-122.6544,"country":"US","type":"naval","branch":"USN"},
{"name":"Camp Humphreys","lat":36.9628,"lng":127.0314,"country":"KR","type":"army","branch":"USA"},
{"name":"Camp Casey","lat":37.9411,"lng":127.0522,"country":"KR","type":"army","branch":"USA"},
{"name":"Yongsan Garrison","lat":37.5347,"lng":126.9769,"country":"KR","type":"army","branch":"USA"},
{"name":"Camp Zama","lat":35.4933,"lng":139.39,"country":"JP","type":"army","branch":"USA"},
{"name":"Torii Station","lat":26.3372,"lng":127.7483,"country":"JP","type":"army","branch":"USA"},
{"name":"Camp Bondsteel","lat":42.3648,"lng":21.2539,"country":"XK","type":"army","branch":"USA"},
{"name":"USAG Grafenwöhr","lat":49.68,"lng":11.92,"country":"DE","type":"army","branch":"USA"},
{"name":"USAG Wiesbaden","lat":50.0483,"lng":8.3256,"country":"DE","type":"army","branch":"USA"},
{"name":"USAG Bavaria (Vilseck)","lat":49.6167,"lng":11.8,"country":"DE","type":"army","branch":"USA"},
{"name":"USAG Stuttgart","lat":48.7258,"lng":9.0731,"country":"DE","type":"army","branch":"USA"},
{"name":"USAG Ansbach","lat":49.3028,"lng":10.5722,"country":"DE","type":"army","branch":"USA"},
{"name":"Caserma Ederle (Vicenza)","lat":45.5475,"lng":11.5364,"country":"IT","type":"army","branch":"USA"},
{"name":"Camp Darby","lat":43.6833,"lng":10.35,"country":"IT","type":"army","branch":"USA"},
{"name":"Fort Liberty (Bragg)","lat":35.1396,"lng":-79.0064,"country":"US","type":"army","branch":"USA"},
{"name":"Fort Cavazos (Hood)","lat":31.1397,"lng":-97.7756,"country":"US","type":"army","branch":"USA"},
{"name":"Fort Moore (Benning)","lat":32.3533,"lng":-84.945,"country":"US","type":"army","branch":"USA"},
{"name":"Fort Campbell","lat":36.66,"lng":-87.4733,"country":"US","type":"army","branch":"USA"},
{"name":"Fort Stewart","lat":31.8736,"lng":-81.6117,"country":"US","type":"army","branch":"USA"},
{"name":"Fort Drum","lat":44.0395,"lng":-75.7647,"country":"US","type":"army","branch":"USA"},
{"name":"Fort Riley","lat":39.0553,"lng":-96.7889,"country":"US","type":"army","branch":"USA"},
{"name":"Fort Carson","lat":38.7375,"lng":-104.7894,"country":"US","type":"army","branch":"USA"},
{"name":"Fort Wainwright","lat":64.8283,"lng":-147.6164,"country":"US","type":"army","branch":"USA"},
{"name":"Joint Base Lewis-McChord","lat":47.0858,"lng":-122.5828,"country":"US","type":"joint","branch":"USA"},
{"name":"Fort Eisenhower (Gordon)","lat":33.4167,"lng":-82.1333,"country":"US","type":"army","branch":"USA"},
{"name":"Fort Huachuca","lat":31.5533,"lng":-110.3436,"country":"US","type":"army","branch":"USA"},
{"name":"Camp Pendleton","lat":33.2164,"lng":-117.3917,"country":"US","type":"marine","branch":"USMC"},
{"name":"Camp Lejeune","lat":34.6236,"lng":-77.3531,"country":"US","type":"marine","branch":"USMC"},
{"name":"MCAS Iwakuni","lat":34.1461,"lng":131.7892,"country":"JP","type":"marine","branch":"USMC"},
{"name":"Camp Butler (Okinawa)","lat":26.4464,"lng":127.7683,"country":"JP","type":"marine","branch":"USMC"},
{"name":"Camp Schwab","lat":26.5322,"lng":127.9333,"country":"JP","type":"marine","branch":"USMC"},
{"name":"Camp Hansen","lat":26.4583,"lng":127.7694,"country":"JP","type":"marine","branch":"USMC"},
{"name":"Marine Corps Base Quantico","lat":38.5228,"lng":-77.3169,"country":"US","type":"marine","branch":"USMC"},
{"name":"MCAS Cherry Point","lat":34.9008,"lng":-76.8806,"country":"US","type":"marine","branch":"USMC"},
{"name":"MCAS Miramar","lat":32.8683,"lng":-117.1424,"country":"US","type":"marine","branch":"USMC"},
{"name":"MCB Camp Smedley Butler","lat":26.5031,"lng":127.7625,"country":"JP","type":"marine","branch":"USMC"},
{"name":"Twentynine Palms","lat":34.2367,"lng":-116.0564,"country":"US","type":"marine","branch":"USMC"},
{"name":"MCAS Beaufort","lat":32.4775,"lng":-80.7192,"country":"US","type":"marine","branch":"USMC"},
{"name":"Joint Base Andrews","lat":38.8108,"lng":-76.8669,"country":"US","type":"joint","branch":"USAF"},
{"name":"Joint Base McGuire-Dix-Lakehurst","lat":40.0158,"lng":-74.5939,"country":"US","type":"joint","branch":"USAF"},
{"name":"Joint Base San Antonio","lat":29.535,"lng":-98.5653,"country":"US","type":"joint","branch":"USAF"},
{"name":"Joint Base Langley-Eustis","lat":37.0833,"lng":-76.36,"country":"US","type":"joint","branch":"USAF"},
{"name":"Joint Base Elmendorf-Richardson","lat":61.2519,"lng":-149.7953,"country":"US","type":"joint","branch":"USAF"},
{"name":"Joint Base Charleston","lat":32.8981,"lng":-80.0408,"country":"US","type":"joint","branch":"USAF"},
{"name":"Nellis Air Force Base","lat":36.2361,"lng":-115.034,"country":"US","type":"air","branch":"USAF"},
{"name":"Edwards Air Force Base","lat":34.9054,"lng":-117.8839,"country":"US","type":"air","branch":"USAF"},
{"name":"Travis Air Force Base","lat":38.2627,"lng":-121.9275,"country":"US","type":"air","branch":"USAF"},
{"name":"Dover Air Force Base","lat":39.1297,"lng":-75.4664,"country":"US","type":"air","branch":"USAF"},
{"name":"Scott Air Force Base","lat":38.5425,"lng":-89.8522,"country":"US","type":"air","branch":"USAF"},
{"name":"Offutt Air Force Base","lat":41.1183,"lng":-95.9125,"country":"US","type":"air","branch":"USAF"},
{"name":"Whiteman Air Force Base","lat":38.7267,"lng":-93.5583,"country":"US","type":"air","branch":"USAF"},
{"name":"Minot Air Force Base","lat":48.4158,"lng":-101.3581,"country":"US","type":"air","branch":"USAF"},
{"name":"Malmstrom Air Force Base","lat":47.5042,"lng":-111.1831,"country":"US","type":"air","branch":"USAF"},
{"name":"F.E. Warren Air Force Base","lat":41.1453,"lng":-104.8661,"country":"US","type":"air","branch":"USAF"},
{"name":"Barksdale Air Force Base","lat":32.5014,"lng":-93.6633,"country":"US","type":"air","branch":"USAF"},
{"name":"Dyess Air Force Base","lat":32.4208,"lng":-99.8547,"country":"US","type":"air","branch":"USAF"},
{"name":"Ellsworth Air Force Base","lat":44.145,"lng":-103.1,"country":"US","type":"air","branch":"USAF"},
{"name":"Luke Air Force Base","lat":33.535,"lng":-112.383,"country":"US","type":"air","branch":"USAF"},
{"name":"Tyndall Air Force Base","lat":30.0696,"lng":-85.5764,"country":"US","type":"air","branch":"USAF"},
{"name":"Eglin Air Force Base","lat":30.4833,"lng":-86.5254,"country":"US","type":"air","branch":"USAF"},
{"name":"Hurlburt Field","lat":30.4278,"lng":-86.6894,"country":"US","type":"air","branch":"USAF"},
{"name":"Patrick Space Force Base","lat":28.2347,"lng":-80.6072,"country":"US","type":"air","branch":"USSF"},
{"name":"Vandenberg Space Force Base","lat":34.7564,"lng":-120.5219,"country":"US","type":"air","branch":"USSF"},
{"name":"Peterson Space Force Base","lat":38.8236,"lng":-104.7003,"country":"US","type":"air","branch":"USSF"},
{"name":"Buckley Space Force Base","lat":39.7067,"lng":-104.7522,"country":"US","type":"air","branch":"USSF"},
{"name":"Schriever Space Force Base","lat":38.81,"lng":-104.5272,"country":"US","type":"air","branch":"USSF"},
{"name":"NSA Souda Bay","lat":35.4847,"lng":24.1219,"country":"GR","type":"naval","branch":"USN"},
{"name":"Camp Arifjan","lat":29.0833,"lng":48.1333,"country":"KW","type":"army","branch":"USA"},
{"name":"Al Minhad Air Base","lat":25.0247,"lng":55.3656,"country":"AE","type":"air","branch":"USAF"},
{"name":"Nigerien Air Base 201","lat":16.9656,"lng":7.9928,"country":"NE","type":"air","branch":"USAF"},
{"name":"Cooperative Security Location Aruba","lat":12.5006,"lng":-70.0125,"country":"AW","type":"joint","branch":"USAF"},
{"name":"Cooperative Security Location Curacao","lat":12.1696,"lng":-68.9597,"country":"CW","type":"joint","branch":"USN"},
{"name":"Soto Cano Air Base","lat":14.3817,"lng":-87.6214,"country":"HN","type":"joint","branch":"USAF"},
{"name":"Camp Buehring","lat":29.65,"lng":47.6667,"country":"KW","type":"army","branch":"USA"},
{"name":"Fort Greely","lat":63.9714,"lng":-145.7489,"country":"US","type":"army","branch":"USA"},
{"name":"Eielson Air Force Base","lat":64.6636,"lng":-147.1031,"country":"US","type":"air","branch":"USAF"},
{"name":"Clear Space Force Station","lat":64.2914,"lng":-149.1942,"country":"US","type":"air","branch":"USSF"},
{"name":"Camp Lemonnier Extension","lat":11.595,"lng":43.155,"country":"DJ","type":"joint","branch":"USAF"},
{"name":"NSF Deveselu","lat":44.0667,"lng":24.5333,"country":"RO","type":"army","branch":"USA"},
{"name":"MK Air Base Campia Turzii","lat":46.5044,"lng":23.8844,"country":"RO","type":"air","branch":"USAF"},
{"name":"Mihail Kogalniceanu Air Base","lat":44.3581,"lng":28.4339,"country":"RO","type":"air","branch":"USAF"},
{"name":"Powidz Air Base","lat":52.3956,"lng":17.8472,"country":"PL","type":"air","branch":"USAF"},
{"name":"Lask Air Base","lat":51.5511,"lng":19.1792,"country":"PL","type":"air","branch":"USAF"},
{"name":"Poznan-Krzesiny Air Base","lat":52.3306,"lng":16.9667,"country":"PL","type":"army","branch":"USA"},
{"name":"Camp Novo Selo","lat":42.3833,"lng":21.2333,"country":"XK","type":"army","branch":"USA"},
{"name":"Keflavik Air Station","lat":63.9856,"lng":-22.5975,"country":"IS","type":"naval","branch":"USN"},
{"name":"Naval Station Guam Submarine Base","lat":13.4475,"lng":144.7206,"country":"GU","type":"naval","branch":"USN"},
{"name":"Fort Shafter","lat":21.345,"lng":-157.8778,"country":"US","type":"army","branch":"USA"},
{"name":"Schofield Barracks","lat":21.4944,"lng":-158.0667,"country":"US","type":"army","branch":"USA"},
{"name":"Tripler Army Medical Center","lat":21.3611,"lng":-157.8817,"country":"US","type":"army","branch":"USA"},
{"name":"Fort Bliss","lat":31.8133,"lng":-106.4133,"country":"US","type":"army","branch":"USA"},
{"name":"Fort Irwin","lat":35.2628,"lng":-116.6836,"country":"US","type":"army","branch":"USA"},
{"name":"Fort Sill","lat":34.65,"lng":-98.4,"country":"US","type":"army","branch":"USA"},
{"name":"Fort Johnson (Polk)","lat":31.0444,"lng":-93.2,"country":"US","type":"army","branch":"USA"},
{"name":"Fort Novosel (Rucker)","lat":31.3436,"lng":-85.7283,"country":"US","type":"army","branch":"USA"},
{"name":"Creech Air Force Base","lat":36.5833,"lng":-115.6714,"country":"US","type":"air","branch":"USAF"},
{"name":"Beale Air Force Base","lat":39.1361,"lng":-121.4367,"country":"US","type":"air","branch":"USAF"},
{"name":"Mountain Home Air Force Base","lat":43.0436,"lng":-115.8722,"country":"US","type":"air","branch":"USAF"},
{"name":"Hill Air Force Base","lat":41.1239,"lng":-111.9647,"country":"US","type":"air","branch":"USAF"},
{"name":"Holloman Air Force Base","lat":32.8525,"lng":-106.1075,"country":"US","type":"air","branch":"USAF"},
{"name":"Cannon Air Force Base","lat":34.3828,"lng":-103.3219,"country":"US","type":"air","branch":"USAF"},
{"name":"Shaw Air Force Base","lat":33.9725,"lng":-80.4717,"country":"US","type":"air","branch":"USAF"},
{"name":"Seymour Johnson Air Force Base","lat":35.3394,"lng":-77.9606,"country":"US","type":"air","branch":"USAF"},
{"name":"Moody Air Force Base","lat":30.9675,"lng":-83.1931,"country":"US","type":"air","branch":"USAF"},
{"name":"Robins Air Force Base","lat":32.64,"lng":-83.5917,"country":"US","type":"air","branch":"USAF"},
{"name":"Tinker Air Force Base","lat":35.4147,"lng":-97.3867,"country":"US","type":"air","branch":"USAF"},
{"name":"Wright-Patterson Air Force Base","lat":39.8261,"lng":-84.0483,"country":"US","type":"air","branch":"USAF"},
{"name":"McConnell Air Force Base","lat":37.6217,"lng":-97.2681,"country":"US","type":"air","branch":"USAF"},
{"name":"Fairchild Air Force Base","lat":47.615,"lng":-117.6556,"country":"US","type":"air","branch":"USAF"},
{"name":"Grand Forks Air Force Base","lat":47.9614,"lng":-97.4011,"country":"US","type":"air","branch":"USAF"},
{"name":"Naval Air Station Pensacola","lat":30.3508,"lng":-87.3186,"country":"US","type":"air","branch":"USN"},
{"name":"Naval Air Station Jacksonville","lat":30.2358,"lng":-81.6806,"country":"US","type":"air","branch":"USN"},
{"name":"Naval Air Station Whidbey Island","lat":48.3517,"lng":-122.6556,"country":"US","type":"air","branch":"USN"},
{"name":"Naval Air Station Oceana","lat":36.8206,"lng":-76.0336,"country":"US","type":"air","branch":"USN"},
{"name":"Naval Air Station Lemoore","lat":36.3331,"lng":-119.9519,"country":"US","type":"air","branch":"USN"},
{"name":"Naval Air Station Fallon","lat":39.4167,"lng":-118.7,"country":"US","type":"air","branch":"USN"},
{"name":"Naval Air Station Corpus Christi","lat":27.6933,"lng":-97.2914,"country":"US","type":"air","branch":"USN"},
{"name":"Naval Air Station Patuxent River","lat":38.2853,"lng":-76.4117,"country":"US","type":"air","branch":"USN"},
{"name":"Naval Weapons Station Seal Beach","lat":33.7414,"lng":-118.0828,"country":"US","type":"naval","branch":"USN"},
{"name":"NSA Bahrain","lat":26.2289,"lng":50.5325,"country":"BH","type":"naval","branch":"USN"},
{"name":"Camp As Sayliyah","lat":25.3167,"lng":51.4333,"country":"QA","type":"army","branch":"USA"},
{"name":"Thumrait Air Base","lat":17.6658,"lng":54.0247,"country":"OM","type":"air","branch":"USAF"},
{"name":"Masirah Island Air Base","lat":20.6753,"lng":58.89,"country":"OM","type":"air","branch":"USAF"},
{"name":"Naval Support Activity Souda Bay","lat":35.4847,"lng":24.1219,"country":"GR","type":"naval","branch":"USN"},
{"name":"Camp Red Cloud","lat":37.8908,"lng":126.9547,"country":"KR","type":"army","branch":"USA"},
{"name":"K-16 (Seoul Air Base)","lat":37.4444,"lng":127.1139,"country":"KR","type":"air","branch":"USAF"},
{"name":"Daegu Air Base (Camp Walker)","lat":35.9,"lng":128.6167,"country":"KR","type":"army","branch":"USA"},
{"name":"Camp Carroll","lat":35.9539,"lng":128.7425,"country":"KR","type":"army","branch":"USA"},
{"name":"Chinhae Naval Base","lat":35.1,"lng":128.65,"country":"KR","type":"naval","branch":"USN"},
{"name":"Iwakuni MCAS","lat":34.1461,"lng":131.7892,"country":"JP","type":"marine","branch":"USMC"},
{"name":"Camp Courtney","lat":26.4519,"lng":127.8111,"country":"JP","type":"marine","branch":"USMC"},
{"name":"Camp Foster","lat":26.3389,"lng":127.7583,"country":"JP","type":"marine","branch":"USMC"},
{"name":"Camp Kinser","lat":26.3111,"lng":127.7306,"country":"JP","type":"marine","branch":"USMC"},
{"name":"Futenma MCAS","lat":26.2742,"lng":127.7567,"country":"JP","type":"marine","branch":"USMC"},
{"name":"Atsugi Naval Air Facility","lat":35.4547,"lng":139.4503,"country":"JP","type":"air","branch":"USN"},
{"name":"Yokohama North Dock","lat":35.4586,"lng":139.65,"country":"JP","type":"naval","branch":"USN"},
{"name":"White Beach Naval Facility","lat":26.3333,"lng":127.85,"country":"JP","type":"naval","branch":"USN"},
{"name":"Camp Henry","lat":35.87,"lng":128.59,"country":"KR","type":"army","branch":"USA"},
{"name":"Fort Buchanan","lat":18.4106,"lng":-66.12,"country":"PR","type":"army","branch":"USA"},
{"name":"Camp Mujuk","lat":35.65,"lng":129.37,"country":"KR","type":"marine","branch":"USMC"},
{"name":"Naval Computer and Telecommunications Station Bahrain","lat":26.2,"lng":50.55,"country":"BH","type":"naval","branch":"USN"},
{"name":"Muwaffaq Salti Air Base","lat":31.8256,"lng":36.7822,"country":"JO","type":"air","branch":"USAF"},
{"name":"Bezmer Air Base","lat":42.4567,"lng":25.8117,"country":"BG","type":"air","branch":"USAF"},
{"name":"Graf Ignatievo Air Base","lat":42.2894,"lng":24.7131,"country":"BG","type":"air","branch":"USAF"},
{"name":"Amari Air Base","lat":59.2603,"lng":24.2086,"country":"EE","type":"air","branch":"USAF"},
{"name":"Lielvarde Air Base","lat":56.7667,"lng":24.85,"country":"LV","type":"air","branch":"USAF"},
{"name":"Siauliai Air Base","lat":55.8939,"lng":23.3953,"country":"LT","type":"air","branch":"USAF"},
{"name":"Tapa Army Base","lat":59.2611,"lng":25.9556,"country":"EE","type":"army","branch":"USA"},
{"name":"Adazi Military Base","lat":57.0736,"lng":24.3264,"country":"LV","type":"army","branch":"USA"},
{"name":"Bemowo Piskie Training Area","lat":53.7667,"lng":21.55,"country":"PL","type":"army","branch":"USA"},
{"name":"Drawsko Pomorskie Training Area","lat":53.5319,"lng":15.8339,"country":"PL","type":"army","branch":"USA"},
{"name":"Camp Bondsteel","lat":42.3648,"lng":21.2539,"country":"XK","type":"army","branch":"USA"},
{"name":"Djibouti-Ambouli International Airport","lat":11.5473,"lng":43.1594,"country":"DJ","type":"air","branch":"USAF"},
{"name":"Niamey Drone Base","lat":13.4811,"lng":2.1697,"country":"NE","type":"air","branch":"USAF"},
{"name":"Camp Simba (Manda Bay)","lat":-2.2625,"lng":40.9125,"country":"KE","type":"joint","branch":"USA"},
{"name":"Baledogle Airfield","lat":2.3539,"lng":44.9411,"country":"SO","type":"air","branch":"USAF"},
{"name":"Chabelley Airfield","lat":11.5131,"lng":43.06,"country":"DJ","type":"air","branch":"USAF"},
{"name":"CJTF-HOA (Djibouti)","lat":11.5469,"lng":43.1497,"country":"DJ","type":"joint","branch":"USA"},
{"name":"Fort Detrick","lat":39.4372,"lng":-77.4372,"country":"US","type":"army","branch":"USA"},
{"name":"Aberdeen Proving Ground","lat":39.4664,"lng":-76.1306,"country":"US","type":"army","branch":"USA"},
{"name":"Redstone Arsenal","lat":34.6831,"lng":-86.6525,"country":"US","type":"army","branch":"USA"},
{"name":"Naval Base Coronado","lat":32.6917,"lng":-117.1661,"country":"US","type":"naval","branch":"USN"},
{"name":"Naval Base Point Loma","lat":32.7,"lng":-117.2431,"country":"US","type":"naval","branch":"USN"},
{"name":"Naval Base Ventura County","lat":34.1531,"lng":-119.2044,"country":"US","type":"naval","branch":"USN"},
{"name":"NAS Key West","lat":24.5761,"lng":-81.6897,"country":"US","type":"air","branch":"USN"},
{"name":"NAS Meridian","lat":32.5508,"lng":-88.5706,"country":"US","type":"air","branch":"USN"},
{"name":"NAS Kingsville","lat":27.5069,"lng":-97.8128,"country":"US","type":"air","branch":"USN"},
{"name":"Naval Station Ingleside","lat":27.8317,"lng":-97.1958,"country":"US","type":"naval","branch":"USN"},
{"name":"Yokota Airlift Wing","lat":35.7485,"lng":139.3485,"country":"JP","type":"air","branch":"USAF"},
{"name":"Camp Red Devil (South Korea)","lat":37.55,"lng":126.98,"country":"KR","type":"army","branch":"USA"},
{"name":"Kwang Ju Air Base","lat":35.1236,"lng":126.8058,"country":"KR","type":"air","branch":"USAF"},
{"name":"Darwin Military Base","lat":-12.4634,"lng":130.8456,"country":"AU","type":"marine","branch":"USMC"},
{"name":"RAAF Tindal","lat":-14.5214,"lng":132.3781,"country":"AU","type":"air","branch":"USAF"},
{"name":"Pine Gap","lat":-23.7981,"lng":133.7353,"country":"AU","type":"joint","branch":"USA"},
{"name":"Northwest Cape (Exmouth)","lat":-21.8164,"lng":114.1656,"country":"AU","type":"naval","branch":"USN"},
{"name":"HMAS Stirling","lat":-32.2333,"lng":115.6833,"country":"AU","type":"naval","branch":"USN"},
{"name":"Clark Air Base (Antonio Bautista)","lat":15.1861,"lng":120.5603,"country":"PH","type":"air","branch":"USAF"},
{"name":"Subic Bay Freeport","lat":14.8,"lng":120.2833,"country":"PH","type":"naval","branch":"USN"},
{"name":"Basa Air Base","lat":14.9881,"lng":120.4919,"country":"PH","type":"air","branch":"USAF"},
{"name":"Lumbia Airfield","lat":8.4156,"lng":124.6117,"country":"PH","type":"air","branch":"USAF"},
{"name":"Sembawang Wharves","lat":1.4614,"lng":103.8261,"country":"SG","type":"naval","branch":"USN"},
{"name":"Paya Lebar Air Base","lat":1.3603,"lng":103.9097,"country":"SG","type":"air","branch":"USAF"},
{"name":"Changi Naval Base","lat":1.3333,"lng":103.9833,"country":"SG","type":"naval","branch":"USN"},
{"name":"Wake Island Airfield","lat":19.2821,"lng":166.6369,"country":"US","type":"air","branch":"USAF"},
{"name":"Kwajalein Atoll (Reagan Test Site)","lat":9.3958,"lng":167.4711,"country":"MH","type":"army","branch":"USA"},
{"name":"Johnston Atoll","lat":16.7297,"lng":-169.5339,"country":"US","type":"air","branch":"USAF"},
{"name":"NSA Mechanicsburg","lat":40.2117,"lng":-77.0036,"country":"US","type":"naval","branch":"USN"},
{"name":"NSA Crane","lat":38.8833,"lng":-86.8333,"country":"US","type":"naval","branch":"USN"},
{"name":"NSWC Dahlgren","lat":38.35,"lng":-77.0333,"country":"US","type":"naval","branch":"USN"}
]