[
{"name":"Zaporizhzhia","lat":47.507,"lng":34.585,"country":"UA","capacity_mw":5700,"reactors":6,"status":"operational"},
{"name":"Bruce","lat":44.3253,"lng":-81.5975,"country":"CA","capacity_mw":6384,"reactors":8,"status":"operational"},
{"name":"Kashiwazaki-Kariwa","lat":37.4264,"lng":138.5978,"country":"JP","capacity_mw":7965,"reactors":7,"status":"shutdown"},
{"name":"Kori (Shin-Kori)","lat":35.32,"lng":129.28,"country":"KR","capacity_mw":5600,"reactors":6,"status":"operational"},
{"name":"Hanul","lat":37.0925,"lng":129.3833,"country":"KR","capacity_mw":5881,"reactors":6,"status":"operational"},
{"name":"Hanbit","lat":35.4147,"lng":126.4222,"country":"KR","capacity_mw":5875,"reactors":6,"status":"operational"},
{"name":"Cattenom","lat":49.4069,"lng":6.2192,"country":"FR","capacity_mw":5200,"reactors":4,"status":"operational"},
{"name":"Palo Verde","lat":33.3886,"lng":-112.8617,"country":"US","capacity_mw":3942,"reactors":3,"status":"operational"},
{"name":"Gravelines","lat":51.0153,"lng":2.1064,"country":"FR","capacity_mw":5460,"reactors":6,"status":"operational"},
{"name":"Paluel","lat":49.8589,"lng":0.6328,"country":"FR","capacity_mw":5320,"reactors":4,"status":"operational"},
{"name":"Flamanville","lat":49.5375,"lng":-1.8814,"country":"FR","capacity_mw":2660,"reactors":2,"status":"operational"},
{"name":"Tricastin","lat":44.3325,"lng":4.7319,"country":"FR","capacity_mw":3660,"reactors":4,"status":"operational"},
{"name":"Bugey","lat":45.7983,"lng":5.2708,"country":"FR","capacity_mw":3580,"reactors":4,"status":"operational"},
{"name":"Dampierre","lat":47.7314,"lng":2.5178,"country":"FR","capacity_mw":3600,"reactors":4,"status":"operational"},
{"name":"Chinon","lat":47.2308,"lng":0.1694,"country":"FR","capacity_mw":3620,"reactors":4,"status":"operational"},
{"name":"Cruas","lat":44.6333,"lng":4.7567,"country":"FR","capacity_mw":3640,"reactors":4,"status":"operational"},
{"name":"Saint-Alban","lat":45.4069,"lng":4.7542,"country":"FR","capacity_mw":2670,"reactors":2,"status":"operational"},
{"name":"Golfech","lat":44.1056,"lng":0.8461,"country":"FR","capacity_mw":2620,"reactors":2,"status":"operational"},
{"name":"Penly","lat":49.9764,"lng":1.2106,"country":"FR","capacity_mw":2660,"reactors":2,"status":"operational"},
{"name":"Civaux","lat":46.4453,"lng":0.6617,"country":"FR","capacity_mw":2990,"reactors":2,"status":"operational"},
{"name":"Chooz","lat":50.0908,"lng":4.7908,"country":"FR","capacity_mw":2860,"reactors":2,"status":"operational"},
{"name":"Belleville","lat":47.5133,"lng":2.8756,"country":"FR","capacity_mw":2620,"reactors":2,"status":"operational"},
{"name":"Nogent-sur-Seine","lat":48.5178,"lng":3.5214,"country":"FR","capacity_mw":2696,"reactors":2,"status":"operational"},
{"name":"South Ukraine","lat":47.8167,"lng":31.2167,"country":"UA","capacity_mw":2850,"reactors":3,"status":"operational"},
{"name":"Rivne","lat":51.3281,"lng":25.8953,"country":"UA","capacity_mw":2835,"reactors":4,"status":"operational"},
{"name":"Khmelnytskyi","lat":50.3006,"lng":26.6486,"country":"UA","capacity_mw":2000,"reactors":2,"status":"operational"},
{"name":"Balakovo","lat":52.0917,"lng":47.9583,"country":"RU","capacity_mw":4000,"reactors":4,"status":"operational"},
{"name":"Kalinin","lat":57.7667,"lng":35.0833,"country":"RU","capacity_mw":4000,"reactors":4,"status":"operational"},
{"name":"Kursk","lat":51.6833,"lng":35.6083,"country":"RU","capacity_mw":4000,"reactors":4,"status":"operational"},
{"name":"Leningrad","lat":59.8333,"lng":29.05,"country":"RU","capacity_mw":4200,"reactors":4,"status":"operational"},
{"name":"Novovoronezh","lat":51.275,"lng":39.2167,"country":"RU","capacity_mw":2546,"reactors":4,"status":"operational"},
{"name":"Rostov","lat":47.5539,"lng":42.0944,"country":"RU","capacity_mw":4014,"reactors":4,"status":"operational"},
{"name":"Smolensk","lat":54.1556,"lng":33.2389,"country":"RU","capacity_mw":3000,"reactors":3,"status":"operational"},
{"name":"Kola","lat":68.1667,"lng":32.4833,"country":"RU","capacity_mw":1760,"reactors":4,"status":"operational"},
{"name":"Beloyarsk","lat":56.8417,"lng":61.3194,"country":"RU","capacity_mw":885,"reactors":2,"status":"operational"},
{"name":"Kudankulam","lat":8.1667,"lng":77.7,"country":"IN","capacity_mw":2000,"reactors":2,"status":"operational"},
{"name":"Tarapur","lat":19.83,"lng":72.65,"country":"IN","capacity_mw":1400,"reactors":4,"status":"operational"},
{"name":"Rajasthan (Rawatbhata)","lat":24.885,"lng":75.585,"country":"IN","capacity_mw":1180,"reactors":6,"status":"operational"},
{"name":"Kaiga","lat":14.85,"lng":74.4333,"country":"IN","capacity_mw":880,"reactors":4,"status":"operational"},
{"name":"Kakrapar","lat":21.2333,"lng":73.35,"country":"IN","capacity_mw":1480,"reactors":4,"status":"operational"},
{"name":"Narora","lat":28.5083,"lng":78.4333,"country":"IN","capacity_mw":440,"reactors":2,"status":"operational"},
{"name":"Madras (Kalpakkam)","lat":12.5556,"lng":80.175,"country":"IN","capacity_mw":440,"reactors":2,"status":"operational"},
{"name":"Taishan","lat":21.9167,"lng":112.9833,"country":"CN","capacity_mw":3400,"reactors":2,"status":"operational"},
{"name":"Yangjiang","lat":21.7144,"lng":112.2558,"country":"CN","capacity_mw":5780,"reactors":6,"status":"operational"},
{"name":"Daya Bay","lat":22.5989,"lng":114.5444,"country":"CN","capacity_mw":1968,"reactors":2,"status":"operational"},
{"name":"Ling Ao","lat":22.6,"lng":114.5472,"country":"CN","capacity_mw":1968,"reactors":2,"status":"operational"},
{"name":"Qinshan","lat":30.4361,"lng":120.9583,"country":"CN","capacity_mw":3262,"reactors":7,"status":"operational"},
{"name":"Hongyanhe","lat":39.795,"lng":121.4767,"country":"CN","capacity_mw":5316,"reactors":6,"status":"operational"},
{"name":"Fuqing","lat":25.4461,"lng":119.4456,"country":"CN","capacity_mw":5510,"reactors":6,"status":"operational"},
{"name":"Tianwan","lat":34.6833,"lng":119.4556,"country":"CN","capacity_mw":5180,"reactors":6,"status":"operational"},
{"name":"Ningde","lat":27.1417,"lng":120.3417,"country":"CN","capacity_mw":3480,"reactors":4,"status":"operational"},
{"name":"Changjiang","lat":19.5042,"lng":108.9403,"country":"CN","capacity_mw":1300,"reactors":2,"status":"operational"},
{"name":"Fangchenggang","lat":21.675,"lng":108.5289,"country":"CN","capacity_mw":2180,"reactors":2,"status":"operational"},
{"name":"Haiyang","lat":36.7,"lng":121.1167,"country":"CN","capacity_mw":2500,"reactors":2,"status":"operational"},
{"name":"Sanmen","lat":29.0958,"lng":121.4528,"country":"CN","capacity_mw":2500,"reactors":2,"status":"operational"},
{"name":"Karachi (KANUPP)","lat":24.8425,"lng":66.7806,"country":"PK","capacity_mw":1014,"reactors":3,"status":"operational"},
{"name":"Chashma","lat":32.3833,"lng":71.4667,"country":"PK","capacity_mw":1320,"reactors":4,"status":"operational"},
{"name":"Barakah","lat":23.9556,"lng":52.2561,"country":"AE","capacity_mw":5600,"reactors":4,"status":"operational"},
{"name":"Bushehr","lat":28.8292,"lng":50.8878,"country":"IR","capacity_mw":915,"reactors":1,"status":"operational"},
{"name":"Watts Bar","lat":35.6,"lng":-84.7833,"country":"US","capacity_mw":2296,"reactors":2,"status":"operational"},
{"name":"Vogtle","lat":33.1422,"lng":-81.7653,"country":"US","capacity_mw":4600,"reactors":4,"status":"operational"},
{"name":"South Texas","lat":28.7953,"lng":-96.0481,"country":"US","capacity_mw":2710,"reactors":2,"status":"operational"},
{"name":"Comanche Peak","lat":32.2978,"lng":-97.7833,"country":"US","capacity_mw":2430,"reactors":2,"status":"operational"},
{"name":"Braidwood","lat":41.2431,"lng":-88.2256,"country":"US","capacity_mw":2386,"reactors":2,"status":"operational"},
{"name":"Byron","lat":42.0756,"lng":-89.2817,"country":"US","capacity_mw":2347,"reactors":2,"status":"operational"},
{"name":"LaSalle County","lat":41.2439,"lng":-88.67,"country":"US","capacity_mw":2207,"reactors":2,"status":"operational"},
{"name":"Peach Bottom","lat":39.7589,"lng":-76.2694,"country":"US","capacity_mw":2770,"reactors":2,"status":"operational"},
{"name":"Limerick","lat":40.2239,"lng":-75.5853,"country":"US","capacity_mw":2277,"reactors":2,"status":"operational"},
{"name":"Susquehanna","lat":41.0889,"lng":-76.1456,"country":"US","capacity_mw":2600,"reactors":2,"status":"operational"},
{"name":"Calvert Cliffs","lat":38.4322,"lng":-76.4419,"country":"US","capacity_mw":1756,"reactors":2,"status":"operational"},
{"name":"Surry","lat":37.1656,"lng":-76.6972,"country":"US","capacity_mw":1676,"reactors":2,"status":"operational"},
{"name":"North Anna","lat":38.0594,"lng":-77.7886,"country":"US","capacity_mw":1892,"reactors":2,"status":"operational"},
{"name":"McGuire","lat":35.4322,"lng":-80.9481,"country":"US","capacity_mw":2316,"reactors":2,"status":"operational"},
{"name":"Catawba","lat":35.0519,"lng":-81.0697,"country":"US","capacity_mw":2258,"reactors":2,"status":"operational"},
{"name":"Oconee","lat":34.7931,"lng":-82.8986,"country":"US","capacity_mw":2554,"reactors":3,"status":"operational"},
{"name":"Brunswick","lat":33.9583,"lng":-78.0103,"country":"US","capacity_mw":1858,"reactors":2,"status":"operational"},
{"name":"Turkey Point","lat":25.4353,"lng":-80.3314,"country":"US","capacity_mw":1638,"reactors":2,"status":"operational"},
{"name":"St. Lucie","lat":27.3486,"lng":-80.2464,"country":"US","capacity_mw":1678,"reactors":2,"status":"operational"},
{"name":"Grand Gulf","lat":32.0083,"lng":-91.0472,"country":"US","capacity_mw":1419,"reactors":1,"status":"operational"},
{"name":"Waterford","lat":29.9958,"lng":-90.4717,"country":"US","capacity_mw":1168,"reactors":1,"status":"operational"},
{"name":"River Bend","lat":30.7572,"lng":-91.3317,"country":"US","capacity_mw":967,"reactors":1,"status":"operational"},
{"name":"Wolf Creek","lat":38.2386,"lng":-95.6875,"country":"US","capacity_mw":1200,"reactors":1,"status":"operational"},
{"name":"Callaway","lat":38.7614,"lng":-91.7817,"country":"US","capacity_mw":1190,"reactors":1,"status":"operational"},
{"name":"Cooper","lat":40.3619,"lng":-95.6414,"country":"US","capacity_mw":801,"reactors":1,"status":"operational"},
{"name":"Columbia Generating Station","lat":46.4711,"lng":-119.3333,"country":"US","capacity_mw":1190,"reactors":1,"status":"operational"},
{"name":"Diablo Canyon","lat":35.2108,"lng":-120.8536,"country":"US","capacity_mw":2256,"reactors":2,"status":"operational"},
{"name":"Point Beach","lat":44.2808,"lng":-87.5364,"country":"US","capacity_mw":1200,"reactors":2,"status":"operational"},
{"name":"Prairie Island","lat":44.6219,"lng":-92.6331,"country":"US","capacity_mw":1100,"reactors":2,"status":"operational"},
{"name":"Monticello","lat":45.3333,"lng":-93.8489,"country":"US","capacity_mw":671,"reactors":1,"status":"operational"},
{"name":"Nine Mile Point","lat":43.5222,"lng":-76.4103,"country":"US","capacity_mw":1937,"reactors":2,"status":"operational"},
{"name":"R.E. Ginna","lat":43.2778,"lng":-77.3089,"country":"US","capacity_mw":581,"reactors":1,"status":"operational"},
{"name":"Indian Point","lat":41.2697,"lng":-73.9522,"country":"US","capacity_mw":2069,"reactors":2,"status":"shutdown"},
{"name":"Millstone","lat":41.3086,"lng":-72.1678,"country":"US","capacity_mw":2100,"reactors":2,"status":"operational"},
{"name":"Seabrook","lat":42.8986,"lng":-70.8489,"country":"US","capacity_mw":1246,"reactors":1,"status":"operational"},
{"name":"Hinkley Point C","lat":51.2083,"lng":-3.1297,"country":"GB","capacity_mw":3260,"reactors":2,"status":"under_construction"},
{"name":"Hinkley Point B","lat":51.2089,"lng":-3.1325,"country":"GB","capacity_mw":1185,"reactors":2,"status":"shutdown"},
{"name":"Sizewell B","lat":52.2147,"lng":1.6192,"country":"GB","capacity_mw":1198,"reactors":1,"status":"operational"},
{"name":"Torness","lat":55.9697,"lng":-2.3972,"country":"GB","capacity_mw":1185,"reactors":2,"status":"operational"},
{"name":"Heysham 1","lat":54.0286,"lng":-2.9117,"country":"GB","capacity_mw":1155,"reactors":2,"status":"operational"},
{"name":"Heysham 2","lat":54.0286,"lng":-2.9117,"country":"GB","capacity_mw":1250,"reactors":2,"status":"operational"},
{"name":"Hunterston B","lat":55.7228,"lng":-4.8961,"country":"GB","capacity_mw":1190,"reactors":2,"status":"shutdown"},
{"name":"Olkiluoto","lat":61.2353,"lng":21.4472,"country":"FI","capacity_mw":2860,"reactors":3,"status":"operational"},
{"name":"Loviisa","lat":60.3736,"lng":26.3556,"country":"FI","capacity_mw":1004,"reactors":2,"status":"operational"},
{"name":"Forsmark","lat":60.4078,"lng":18.1681,"country":"SE","capacity_mw":3210,"reactors":3,"status":"operational"},
{"name":"Ringhals","lat":57.2644,"lng":12.1131,"country":"SE","capacity_mw":2186,"reactors":2,"status":"operational"},
{"name":"Oskarshamn","lat":57.4153,"lng":16.6658,"country":"SE","capacity_mw":1400,"reactors":1,"status":"operational"},
{"name":"Doel","lat":51.3258,"lng":4.2592,"country":"BE","capacity_mw":2911,"reactors":4,"status":"operational"},
{"name":"Tihange","lat":50.5347,"lng":5.2728,"country":"BE","capacity_mw":3016,"reactors":3,"status":"operational"},
{"name":"Borssele","lat":51.43,"lng":3.7175,"country":"NL","capacity_mw":482,"reactors":1,"status":"operational"},
{"name":"Leibstadt","lat":47.6011,"lng":8.1844,"country":"CH","capacity_mw":1220,"reactors":1,"status":"operational"},
{"name":"Gösgen","lat":47.3658,"lng":7.7967,"country":"CH","capacity_mw":1035,"reactors":1,"status":"operational"},
{"name":"Beznau","lat":47.5572,"lng":8.2281,"country":"CH","capacity_mw":730,"reactors":2,"status":"operational"},
{"name":"Cofrentes","lat":39.2142,"lng":-1.0486,"country":"ES","capacity_mw":1064,"reactors":1,"status":"operational"},
{"name":"Almaraz","lat":39.8081,"lng":-5.6944,"country":"ES","capacity_mw":1960,"reactors":2,"status":"operational"},
{"name":"Ascó","lat":41.2025,"lng":0.5661,"country":"ES","capacity_mw":1992,"reactors":2,"status":"operational"},
{"name":"Vandellós","lat":41.1975,"lng":0.8656,"country":"ES","capacity_mw":1087,"reactors":1,"status":"operational"},
{"name":"Trillo","lat":40.7006,"lng":-2.6136,"country":"ES","capacity_mw":1066,"reactors":1,"status":"operational"},
{"name":"Dukovany","lat":51.0869,"lng":16.1494,"country":"CZ","capacity_mw":2040,"reactors":4,"status":"operational"},
{"name":"Temelín","lat":49.1814,"lng":14.3764,"country":"CZ","capacity_mw":2116,"reactors":2,"status":"operational"},
{"name":"Mochovce","lat":48.2792,"lng":18.44,"country":"SK","capacity_mw":1880,"reactors":4,"status":"operational"},
{"name":"Bohunice","lat":48.49,"lng":17.685,"country":"SK","capacity_mw":942,"reactors":2,"status":"operational"},
{"name":"Paks","lat":46.5722,"lng":18.8539,"country":"HU","capacity_mw":2000,"reactors":4,"status":"operational"},
{"name":"Kozloduy","lat":43.7444,"lng":23.765,"country":"BG","capacity_mw":2000,"reactors":2,"status":"operational"},
{"name":"Cernavoda","lat":44.3194,"lng":28.0581,"country":"RO","capacity_mw":1300,"reactors":2,"status":"operational"},
{"name":"Krško","lat":45.9392,"lng":15.5161,"country":"SI","capacity_mw":696,"reactors":1,"status":"operational"},
{"name":"Akkuyu","lat":36.1444,"lng":33.5358,"country":"TR","capacity_mw":4800,"reactors":4,"status":"under_construction"},
{"name":"Angra","lat":-23.0072,"lng":-44.4572,"country":"BR","capacity_mw":1990,"reactors":2,"status":"operational"},
{"name":"Atucha","lat":-33.9667,"lng":-59.2083,"country":"AR","capacity_mw":1045,"reactors":2,"status":"operational"},
{"name":"Embalse","lat":-32.2333,"lng":-64.4833,"country":"AR","capacity_mw":648,"reactors":1,"status":"operational"},
{"name":"Laguna Verde","lat":19.7189,"lng":-96.405,"country":"MX","capacity_mw":1552,"reactors":2,"status":"operational"},
{"name":"Koeberg","lat":-33.6742,"lng":18.4344,"country":"ZA","capacity_mw":1830,"reactors":2,"status":"operational"},
{"name":"Darlington","lat":43.8747,"lng":-78.7158,"country":"CA","capacity_mw":3524,"reactors":4,"status":"operational"},
{"name":"Pickering","lat":43.8133,"lng":-79.0633,"country":"CA","capacity_mw":3094,"reactors":6,"status":"operational"},
{"name":"Point Lepreau","lat":45.0667,"lng":-66.4533,"country":"CA","capacity_mw":660,"reactors":1,"status":"operational"},
{"name":"Gentilly-2","lat":46.39,"lng":-72.3361,"country":"CA","capacity_mw":635,"reactors":1,"status":"shutdown"},
{"name":"Ohi","lat":35.5422,"lng":135.6553,"country":"JP","capacity_mw":4710,"reactors":4,"status":"operational"},
{"name":"Takahama","lat":35.5203,"lng":135.6333,"country":"JP","capacity_mw":3392,"reactors":4,"status":"operational"},
{"name":"Ikata","lat":33.4908,"lng":132.3144,"country":"JP","capacity_mw":890,"reactors":1,"status":"operational"},
{"name":"Sendai (Satsumasendai)","lat":31.8333,"lng":130.1892,"country":"JP","capacity_mw":1780,"reactors":2,"status":"operational"},
{"name":"Genkai","lat":33.5122,"lng":129.8375,"country":"JP","capacity_mw":3478,"reactors":4,"status":"operational"},
{"name":"Hamaoka","lat":34.6236,"lng":138.1433,"country":"JP","capacity_mw":3617,"reactors":3,"status":"shutdown"},
{"name":"Onagawa","lat":38.4006,"lng":141.5003,"country":"JP","capacity_mw":2174,"reactors":3,"status":"operational"},
{"name":"Shimane","lat":35.5389,"lng":133.0017,"country":"JP","capacity_mw":1280,"reactors":2,"status":"operational"},
{"name":"Mihama","lat":35.7017,"lng":135.9619,"country":"JP","capacity_mw":826,"reactors":1,"status":"operational"},
{"name":"Tokai","lat":36.4664,"lng":140.6069,"country":"JP","capacity_mw":1100,"reactors":1,"status":"operational"},
{"name":"Fukushima Daiichi","lat":37.4211,"lng":141.0328,"country":"JP","capacity_mw":4696,"reactors":6,"status":"shutdown"},
{"name":"Fukushima Daini","lat":37.3167,"lng":141.0256,"country":"JP","capacity_mw":4400,"reactors":4,"status":"shutdown"},
{"name":"Wolsong","lat":35.71,"lng":129.475,"country":"KR","capacity_mw":2779,"reactors":4,"status":"operational"},
{"name":"Shin-Wolsong","lat":35.72,"lng":129.48,"country":"KR","capacity_mw":2000,"reactors":2,"status":"operational"},
{"name":"Qinshan Phase III","lat":30.44,"lng":120.96,"country":"CN","capacity_mw":1400,"reactors":2,"status":"operational"},
{"name":"Shidaowan","lat":36.9,"lng":122.5833,"country":"CN","capacity_mw":200,"reactors":1,"status":"operational"},
{"name":"Zhangzhou","lat":24.15,"lng":117.67,"country":"CN","capacity_mw":2200,"reactors":2,"status":"under_construction"},
{"name":"Taipingling","lat":22.94,"lng":115.47,"country":"CN","capacity_mw":2200,"reactors":2,"status":"under_construction"},
{"name":"Rooppur","lat":24.0667,"lng":89.05,"country":"BD","capacity_mw":2400,"reactors":2,"status":"under_construction"},
{"name":"El Dabaa","lat":31.03,"lng":28.48,"country":"EG","capacity_mw":4800,"reactors":4,"status":"under_construction"},
{"name":"Belarusian (Ostrovets)","lat":54.7556,"lng":26.0889,"country":"BY","capacity_mw":2400,"reactors":2,"status":"operational"},
{"name":"Grohnde","lat":52.0347,"lng":9.4133,"country":"DE","capacity_mw":1360,"reactors":1,"status":"shutdown"},
{"name":"Emsland","lat":52.4731,"lng":7.3181,"country":"DE","capacity_mw":1400,"reactors":1,"status":"shutdown"},
{"name":"Isar 2","lat":48.6056,"lng":12.2917,"country":"DE","capacity_mw":1410,"reactors":1,"status":"shutdown"},
{"name":"Neckarwestheim 2","lat":49.0417,"lng":9.175,"country":"DE","capacity_mw":1310,"reactors":1,"status":"shutdown"},
{"name":"Brokdorf","lat":53.8497,"lng":9.345,"country":"DE","capacity_mw":1410,"reactors":1,"status":"shutdown"},
{"name":"Gundremmingen","lat":48.5133,"lng":10.4017,"country":"DE","capacity_mw":1344,"reactors":1,"status":"shutdown"},
{"name":"Philippsburg","lat":49.2511,"lng":8.4353,"country":"DE","capacity_mw":1402,"reactors":1,"status":"shutdown"},
{"name":"Grafenrheinfeld","lat":49.9833,"lng":10.1847,"country":"DE","capacity_mw":1275,"reactors":1,"status":"shutdown"},
{"name":"Mühleberg","lat":46.97,"lng":7.2678,"country":"CH","capacity_mw":373,"reactors":1,"status":"shutdown"},
{"name":"Chernobyl","lat":51.3892,"lng":30.0997,"country":"UA","capacity_mw":3800,"reactors":4,"status":"shutdown"},
{"name":"Ignalina","lat":55.6044,"lng":26.5589,"country":"LT","capacity_mw":2600,"reactors":2,"status":"shutdown"},
{"name":"Metsamor (Armenian)","lat":40.1833,"lng":44.1483,"country":"AM","capacity_mw":408,"reactors":1,"status":"operational"},
{"name":"Bataan","lat":14.6333,"lng":120.2833,"country":"PH","capacity_mw":621,"reactors":1,"status":"shutdown"},
{"name":"San Onofre","lat":33.3686,"lng":-117.5558,"country":"US","capacity_mw":2254,"reactors":2,"status":"shutdown"},
{"name":"Three Mile Island","lat":40.1531,"lng":-76.7247,"country":"US","capacity_mw":819,"reactors":1,"status":"shutdown"},
{"name":"Vermont Yankee","lat":42.7803,"lng":-72.5144,"country":"US","capacity_mw":620,"reactors":1,"status":"shutdown"},
{"name":"Pilgrim","lat":41.9444,"lng":-70.5781,"country":"US","capacity_mw":677,"reactors":1,"status":"shutdown"},
{"name":"Crystal River","lat":28.9567,"lng":-82.6981,"country":"US","capacity_mw":860,"reactors":1,"status":"shutdown"},
{"name":"Leibstadt","lat":47.6011,"lng":8.1844,"country":"CH","capacity_mw":1220,"reactors":1,"status":"operational"},
{"name":"Sellafield (Calder Hall)","lat":54.42,"lng":-3.495,"country":"GB","capacity_mw":196,"reactors":4,"status":"shutdown"},
{"name":"Dungeness B","lat":50.9133,"lng":0.9647,"country":"GB","capacity_mw":1040,"reactors":2,"status":"shutdown"},
{"name":"Wylfa","lat":53.4167,"lng":-4.4833,"country":"GB","capacity_mw":990,"reactors":2,"status":"shutdown"},
{"name":"Hartlepool","lat":54.6344,"lng":-1.18,"country":"GB","capacity_mw":1185,"reactors":2,"status":"operational"}
]